{"type":"FeatureCollection","features":[{"type":"Feature","properties":{"place":"Argentine, KCK","city":"Kansas City","state":"Kansas","type":"metropolitan","source":"Google Maps"},"geometry":{"type":"Point","coordinates":[-94.6726637,39.0750701]}},{"type":"Feature","properties":{"place":"Scottsbluff","city":"Scottsbluff","state":"Nebraska","type":"rural","source":"Bing Maps"},"geometry":{"type":"Point","coordinates":[-103.6641769,41.8675957]}},{"type":"Feature","properties":{"place":"Garden City","city":"Garden City","state":"Kansas","type":"rural","source":"Google Maps"},"geometry":{"type":"Point","coordinates":[-100.8818281,37.9643072]},"id":2},{"type":"Feature","properties":{"place":"St. Louis","city":"St. Louis","state":"Missouri","type":"metropolitan","source":"Bing Maps"},"geometry":{"type":"Point","coordinates":[-90.242402,38.57341]}},{"type":"Feature","properties":{"place":"East St. Louis","city":"East St. Louis","state":"Illinois","type":"metropolitan","source":"Bing Maps"},"geometry":{"type":"Point","coordinates":[-90.1549377,38.6229324]}},{"type":"Feature","properties":{"place":"Granite City","city":"Granite City","state":"Illinois","type":"metropolitan","source":"Bing Maps"},"geometry":{"type":"Point","coordinates":[-90.1404724,38.7044067]}},{"type":"Feature","properties":{"place":"Alton","city":"Alton","state":"Illinois","type":"metropolitan","source":"Bing Maps"},"geometry":{"type":"Point","coordinates":[-90.149353,38.9033394]}},{"type":"Feature","properties":{"place":"Belleville","city":"Belleville","state":"Illinois","type":"rural","source":"Bing Maps"},"geometry":{"type":"Point","coordinates":[-89.98423,38.5126305]}},{"type":"Feature","properties":{"place":"Westside, KCMO","city":"Kansas City","state":"Missouri","type":"metropolitan","source":"Google Maps"},"geometry":{"type":"Point","coordinates":[-94.5999587,39.0858421]}},{"type":"Feature","properties":{"place":"East Bottoms, KCMO","city":"Kansas City","state":"Missouri","type":"metropolitan","source":"Google Maps"},"geometry":{"type":"Point","coordinates":[-94.5526077,39.1211971]}},{"type":"Feature","properties":{"place":"Cement City, KCMO","city":"Kansas City","state":"Missouri","type":"metropolitan","source":"Google Maps"},"geometry":{"type":"Point","coordinates":[-94.4276677,39.1308811]}},{"type":"Feature","properties":{"place":"Armourdale, KCK","city":"Kansas City","state":"Kansas","type":"metropolitan","source":"Google Maps"},"geometry":{"type":"Point","coordinates":[-94.6224517,39.0845831]}},{"type":"Feature","properties":{"place":"Turner, KCK","city":"Kansas City","state":"Kansas","type":"metropolitan","source":"Google Maps"},"geometry":{"type":"Point","coordinates":[-94.7072761,39.0808091]}},{"type":"Feature","properties":{"place":"Morris, KCK","city":"Kansas City","state":"Kansas","type":"metropolitan","source":"Google Maps"},"geometry":{"type":"Point","coordinates":[-94.7448451,39.0622041]}},{"type":"Feature","properties":{"place":"Boxcar Community, St. Louis","city":"St. Louis","state":"Missouri","type":"metropolitan","source":"Bing Maps"},"geometry":{"type":"Point","coordinates":[-90.2299611,38.7092362]}},{"type":"Feature","properties":{"place":"South Omaha","city":"Omaha","state":"Nebraska","type":"metropolitan","source":"Google Maps"},"geometry":{"type":"Point","coordinates":[-95.947801,41.206444]}},{"type":"Feature","properties":{"place":"Little Italy, Omaha","city":"Omaha","state":"Nebraska","type":"metropolitan","source":"Google Maps"},"geometry":{"type":"Point","coordinates":[-95.923645,41.245439]}},{"type":"Feature","properties":{"place":"Gibson, Omaha","city":"Omaha","state":"Nebraska","type":"metropolitan","source":"Google Maps"},"geometry":{"type":"Point","coordinates":[-95.91955,41.228781]}},{"type":"Feature","properties":{"place":"Council Bluffs","city":"Council Bluffs","state":"Iowa","type":"metropolitan","source":"Bing Maps"},"geometry":{"type":"Point","coordinates":[-95.8543625,41.2589645]}},{"type":"Feature","properties":{"place":"North Kansas City","city":"Kansas City","state":"Missouri","type":"metropolitan","source":"Google Maps"},"geometry":{"type":"Point","coordinates":[-94.5701731,39.1404371]}},{"type":"Feature","properties":{"place":"Sheffield, KCMO","city":"Kansas City","state":"Missouri","type":"metropolitan","source":"Google Maps"},"geometry":{"type":"Point","coordinates":[-94.5060451,39.1068211]}},{"type":"Feature","properties":{"place":"Rosedale, KCK","city":"Kansas City","state":"Kansas","type":"metropolitan","source":"Google Maps"},"geometry":{"type":"Point","coordinates":[-94.6347101,39.0514161]}},{"type":"Feature","properties":{"place":"La Yarda, Topeka","city":"Topeka","state":"Kansas","type":"urban","source":"Google Maps"},"geometry":{"type":"Point","coordinates":[-95.6657611,39.0492061]}},{"type":"Feature","properties":{"place":"El Huarache, Wichita","city":"Wichita","state":"Kansas","type":"urban","source":"Google Maps"},"geometry":{"type":"Point","coordinates":[-97.3322561,37.7172032]}},{"type":"Feature","properties":{"place":"South Wichita","city":"Wichita","state":"Kansas","type":"urban","source":"Google Maps"},"geometry":{"type":"Point","coordinates":[-97.3310871,37.6754262]}},{"type":"Feature","properties":{"place":"North Wichita","city":"Wichita","state":"Kansas","type":"urban","source":"Google Maps"},"geometry":{"type":"Point","coordinates":[-97.3391301,37.7227992]}},{"type":"Feature","properties":{"place":"Wellington","city":"Wellington","state":"Kansas","type":"rural","source":"Bing Maps"},"geometry":{"type":"Point","coordinates":[-97.402092,37.2716751]}},{"type":"Feature","properties":{"place":"Newton","city":"Newton","state":"Kansas","type":"rural","source":"Bing Maps"},"geometry":{"type":"Point","coordinates":[-97.3450928,38.0439606]}},{"type":"Feature","properties":{"place":"Las Casitas, Emporia","city":"Emporia","state":"Kansas","type":"rural","source":"Google Maps"},"geometry":{"type":"Point","coordinates":[-96.2071083,38.3945631]}},{"type":"Feature","properties":{"place":"Hutchinson","city":"Hutchinson","state":"Kansas","type":"rural","source":"Bing Maps"},"geometry":{"type":"Point","coordinates":[-97.9131012,38.0705338]}},{"type":"Feature","properties":{"place":"Lyons","city":"Lyons","state":"Kansas","type":"rural","source":"Bing Maps"},"geometry":{"type":"Point","coordinates":[-98.2018433,38.3455276]}},{"type":"Feature","properties":{"place":"Gering","city":"Gering","state":"Nebraska","type":"rural","source":"Bing Maps"},"geometry":{"type":"Point","coordinates":[-103.6617508,41.8215408]}},{"type":"Feature","properties":{"place":"Minatare","city":"Minatare","state":"Nebraska","type":"rural","source":"Bing Maps"},"geometry":{"type":"Point","coordinates":[-103.5034027,41.8114777]}},{"type":"Feature","properties":{"place":"Morrill","city":"Morrill","state":"Nebraska","type":"rural","source":"Bing Maps"},"geometry":{"type":"Point","coordinates":[-103.9235153,41.9634247]}},{"type":"Feature","properties":{"place":"Bayard","city":"Bayard","state":"Nebraska","type":"rural","source":"Bing Maps"},"geometry":{"type":"Point","coordinates":[-103.3229141,41.7586021]}},{"type":"Feature","properties":{"place":"Grand Island","city":"Grand Island","state":"Nebraska","type":"rural","source":"Bing Maps"},"geometry":{"type":"Point","coordinates":[-98.3514099,40.9200287]}},{"type":"Feature","properties":{"place":"Dodge City","city":"Dodge City","state":"Kansas","type":"rural","source":"Bing Maps"},"geometry":{"type":"Point","coordinates":[-100.0151672,37.7654686]}},{"type":"Feature","properties":{"place":"Chanute","city":"Chanute","state":"Kansas","type":"rural","source":"Bing Maps"},"geometry":{"type":"Point","coordinates":[-95.4525375,37.6817856]}},{"type":"Feature","properties":{"place":"Parsons","city":"Parsons","state":"Kansas","type":"rural","source":"Bing Maps"},"geometry":{"type":"Point","coordinates":[-95.2591858,37.3404999]}},{"type":"Feature","properties":{"place":"Salina","city":"Salina","state":"Kansas","type":"rural","source":"Bing Maps"},"geometry":{"type":"Point","coordinates":[-97.6124115,38.8405571]}},{"type":"Feature","properties":{"place":"Ottawa","city":"Ottawa","state":"Kansas","type":"rural","source":"Bing Maps"},"geometry":{"type":"Point","coordinates":[-95.2686386,38.6084976]}},{"type":"Feature","properties":{"place":"Osawatomie","city":"Osawatomie","state":"Kansas","type":"rural","source":"Bing Maps"},"geometry":{"type":"Point","coordinates":[-94.9508667,38.4988861]}},{"type":"Feature","properties":{"place":"Manhattan","city":"Manhattan","state":"Kansas","type":"rural","source":"Bing Maps"},"geometry":{"type":"Point","coordinates":[-96.566597,39.1866875]}},{"type":"Feature","properties":{"place":"Eudora","city":"Eudora","state":"Kansas","type":"rural","source":"Bing Maps"},"geometry":{"type":"Point","coordinates":[-95.098877,38.941925]}},{"type":"Feature","properties":{"place":"Hershey","city":"Hershey","state":"Nebraska","type":"rural","source":"Bing Maps"},"geometry":{"type":"Point","coordinates":[-101.0024109,41.1606903]}},{"type":"Feature","properties":{"place":"Sutherland","city":"Sutherland","state":"Nebraska","type":"rural","source":"Bing Maps"},"geometry":{"type":"Point","coordinates":[-101.1262131,41.1569481]}},{"type":"Feature","properties":{"place":"North Platte","city":"North Platte","state":"Nebraska","type":"rural","source":"Bing Maps"},"geometry":{"type":"Point","coordinates":[-100.7639694,41.1325073]}},{"type":"Feature","properties":{"place":"Coffeyville","city":"Coffeyville","state":"Kansas","type":"rural","source":"Bing Maps"},"geometry":{"type":"Point","coordinates":[-95.615715,37.0329819]}},{"type":"Feature","properties":{"place":"Fredonia","city":"Fredonia","state":"Kansas","type":"rural","source":"Bing Maps"},"geometry":{"type":"Point","coordinates":[-95.8326035,37.5301552]}},{"type":"Feature","properties":{"place":"Independence","city":"Independence","state":"Kansas","type":"rural","source":"Bing Maps"},"geometry":{"type":"Point","coordinates":[-95.7065964,37.2323494]}},{"type":"Feature","properties":{"place":"Atchison","city":"Atchison","state":"Kansas","type":"rural","source":"Bing Maps"},"geometry":{"type":"Point","coordinates":[-95.1273804,39.5609016]}},{"type":"Feature","properties":{"place":"Kanopolis","city":"Kanopolis","state":"Kansas","type":"rural","source":"Bing Maps"},"geometry":{"type":"Point","coordinates":[-98.1579056,38.709053]}},{"type":"Feature","properties":{"place":"Lyman","city":"Lyman","state":"Nebraska","type":"rural","source":"Bing Maps"},"geometry":{"type":"Point","coordinates":[-104.0453997,41.9173691]}},{"type":"Feature","properties":{"place":"Fairmont City","city":"Fairmont City","state":"Illinois","type":"metropolitan","source":"Bing Maps"},"geometry":{"type":"Point","coordinates":[-90.106491,38.6452446]}},{"type":"Feature","properties":{"place":"St. Joseph","city":"St. Joseph","state":"Missouri","type":"urban","source":"Bing Maps"},"geometry":{"type":"Point","coordinates":[-94.8550807,39.7456651]}}]}